{
  "trails": [
    {
      "id": "cape-cod-rail-trail",
      "name": "Cape Cod Rail Trail",
      "state": "MA",
      "distance": "22 miles",
      "distanceFull": "28 miles total",
      "description": "Paved path with gentle hills and beach access to Cape Cod National Seashore. Bike rentals available along the trail. Pet friendly!",
      "lat": 41.7563,
      "lng": -70.0611,
      "trailheadLat": 41.6777,
      "trailheadLng": -70.1562,
      "trailheadName": "South Dennis Trailhead",
      "topPick": true,
      "surface": "Paved",
      "tags": ["Paved", "Beach Access", "Pet Friendly", "Rentals"],
      "gpxUrl": "https://www.alltrails.com/explore/map/cape-cod-rail-trail",
      "websiteUrl": "https://www.mass.gov/locations/cape-cod-rail-trail",
      "trailspottingUrl": "https://www.trailspotting.com/2023/06/cape-cod-rail-trail-ma.html"
    },
    {
      "id": "shining-sea-bikeway",
      "name": "Shining Sea Bikeway",
      "state": "MA",
      "distance": "11 miles",
      "description": "Beautiful coastal ride through Falmouth with Buzzards Bay views. One of the Cape's most scenic paths.",
      "lat": 41.5516,
      "lng": -70.6162,
      "trailheadLat": 41.5853,
      "trailheadLng": -70.5489,
      "trailheadName": "North Falmouth Trailhead",
      "topPick": false,
      "surface": "Paved",
      "tags": ["Coastal", "Scenic"],
      "gpxUrl": null,
      "websiteUrl": "https://www.mass.gov/locations/shining-sea-bikeway",
      "trailspottingUrl": "https://www.trailspotting.com/2023/06/shining-sea-bikeway-cape-cod-ma.html"
    },
    {
      "id": "ashuwillticook-rail-trail",
      "name": "Ashuwillticook Rail Trail",
      "state": "MA",
      "distance": "12.7 miles",
      "description": "Berkshires ride with Mount Greylock and Hoosic Mountains views. Parking lots and restrooms available along the route.",
      "lat": 42.5551,
      "lng": -73.1568,
      "trailheadLat": 42.6230,
      "trailheadLng": -73.1167,
      "trailheadName": "Adams Visitor Center",
      "topPick": false,
      "surface": "Paved",
      "tags": ["Mountain Views", "Parking", "Restrooms"],
      "gpxUrl": null,
      "websiteUrl": "https://www.mass.gov/locations/ashuwillticook-rail-trail",
      "trailspottingUrl": null
    },
    {
      "id": "nashua-river-rail-trail",
      "name": "Nashua River Rail Trail",
      "state": "MA",
      "distance": "12.5 miles",
      "description": "Cross-border trail connecting Massachusetts and New Hampshire. Great for longer rides.",
      "lat": 42.5612,
      "lng": -71.5836,
      "trailheadLat": 42.5562,
      "trailheadLng": -71.5856,
      "trailheadName": "Ayer Trailhead",
      "topPick": false,
      "surface": "Paved",
      "tags": ["Paved", "Cross-State"],
      "gpxUrl": null,
      "websiteUrl": "https://www.mass.gov/locations/nashua-river-rail-trail",
      "trailspottingUrl": "https://www.trailspotting.com/2023/03/nashua-river-rail-trail-ma-nh.html"
    },
    {
      "id": "northern-rail-trail",
      "name": "Northern Rail Trail",
      "state": "NH",
      "distance": "59.3 miles",
      "description": "The longest rail trail in New Hampshire! Named to \"100 Top Trails in U.S.\" Passes farms, orchards, lakes, and covered bridges with possible moose sightings.",
      "lat": 43.4326,
      "lng": -71.8657,
      "trailheadLat": 43.6424,
      "trailheadLng": -72.2526,
      "trailheadName": "Lebanon Trailhead",
      "topPick": true,
      "surface": "Crushed Stone",
      "tags": ["Top 100 US Trail", "Wildlife", "Covered Bridges"],
      "gpxUrl": null,
      "websiteUrl": "https://www.northernrailtrail.org/",
      "trailspottingUrl": null
    },
    {
      "id": "presidential-rail-trail",
      "name": "Presidential Rail Trail",
      "state": "NH",
      "distance": "18 miles",
      "description": "Breathtaking White Mountains Presidential Range views. Features beaver ponds, pastures, and key birding spots.",
      "lat": 44.3876,
      "lng": -71.1851,
      "trailheadLat": 44.3902,
      "trailheadLng": -71.1925,
      "trailheadName": "Gorham Trailhead",
      "topPick": false,
      "surface": "Crushed Stone",
      "tags": ["Mountain Views", "Beaver Ponds", "Birding"],
      "gpxUrl": null,
      "websiteUrl": "https://www.nhstateparks.org/visit/recreational-rail-trails/presidential-recreational-rail-trail",
      "trailspottingUrl": null
    },
    {
      "id": "cotton-valley-trail",
      "name": "Cotton Valley Trail",
      "state": "NH",
      "distance": "12 miles each way",
      "description": "5-star rated trail through New Hampshire's beautiful Lakes Region. Great for out-and-back rides.",
      "lat": 43.6106,
      "lng": -71.2437,
      "trailheadLat": 43.6054,
      "trailheadLng": -71.2139,
      "trailheadName": "Wolfeboro Trailhead",
      "topPick": false,
      "surface": "Crushed Stone",
      "tags": ["5-Star Rated", "Lakes Region"],
      "gpxUrl": null,
      "websiteUrl": "https://www.nhstateparks.org/visit/recreational-rail-trails/cotton-valley-rail-trail",
      "trailspottingUrl": null
    },
    {
      "id": "eastern-trail",
      "name": "Eastern Trail",
      "state": "ME",
      "distance": "22 miles (65 total)",
      "description": "Flat, easy ride on asphalt and crushed stone. Features blueberry barrens, Rachel Carson Wildlife Refuge, Scarborough Marsh, and Bug Light Park.",
      "lat": 43.5510,
      "lng": -70.3559,
      "trailheadLat": 43.6501,
      "trailheadLng": -70.2457,
      "trailheadName": "Bug Light Park, South Portland",
      "topPick": true,
      "surface": "Paved/Crushed Stone",
      "tags": ["Paved", "Blueberries", "Wildlife Refuge"],
      "gpxUrl": null,
      "websiteUrl": "https://www.easterntrail.org/",
      "trailspottingUrl": null
    },
    {
      "id": "kennebec-river-rail-trail",
      "name": "Kennebec River Rail Trail",
      "state": "ME",
      "distance": "6.5 miles",
      "description": "Fully paved, flat riverside ride with four convenient access points. Great for beginners or casual rides.",
      "lat": 44.3106,
      "lng": -69.7795,
      "trailheadLat": 44.3135,
      "trailheadLng": -69.7746,
      "trailheadName": "Augusta Waterfront",
      "topPick": false,
      "surface": "Paved",
      "tags": ["Fully Paved", "Riverside", "Beginner Friendly"],
      "gpxUrl": null,
      "websiteUrl": "https://www.krrt.org/",
      "trailspottingUrl": null
    },
    {
      "id": "eastern-promenade-trail",
      "name": "Eastern Promenade Trail",
      "state": "ME",
      "distance": "2+ miles",
      "description": "Urban trail with stunning ocean views. Connects to Back Cove Trail for extended riding. Perfect for city exploration.",
      "lat": 43.6680,
      "lng": -70.2420,
      "trailheadLat": 43.6680,
      "trailheadLng": -70.2420,
      "trailheadName": "East End Beach, Portland",
      "topPick": false,
      "surface": "Paved",
      "tags": ["Urban", "Ocean Views", "Connects Trails"],
      "gpxUrl": null,
      "websiteUrl": "https://trails.org/our-trails/eastern-promenade-trail/",
      "trailspottingUrl": null
    },
    {
      "id": "island-line-trail",
      "name": "Island Line Trail",
      "state": "VT",
      "distance": "14 miles",
      "description": "Stunning Lake Champlain views with a unique 3-mile causeway extending over the water. Paved and packed gravel surface with Adirondack mountain vistas.",
      "lat": 44.4759,
      "lng": -73.2121,
      "trailheadLat": 44.4801,
      "trailheadLng": -73.2210,
      "trailheadName": "Burlington Waterfront",
      "topPick": true,
      "surface": "Paved/Gravel",
      "tags": ["Paved + Gravel", "Lake Views", "Scenic"],
      "gpxUrl": null,
      "websiteUrl": "https://localmotion.org/island-line-trail/",
      "trailspottingUrl": null,
      "note": "200ft gap requires seasonal ferry in summer months"
    },
    {
      "id": "montpelier-wells-river-trail",
      "name": "Montpelier & Wells River Rail Trail",
      "state": "VT",
      "distance": "19 miles",
      "description": "Scenic dirt and cinder trail through untamed Vermont landscape. Lake Groton offers a refreshing swimming spot halfway through.",
      "lat": 44.2628,
      "lng": -72.2339,
      "trailheadLat": 44.3252,
      "trailheadLng": -72.2234,
      "trailheadName": "Groton State Forest",
      "topPick": false,
      "surface": "Dirt/Cinder",
      "tags": ["Dirt/Cinder", "Swimming", "Forest"],
      "gpxUrl": null,
      "websiteUrl": "https://fpr.vermont.gov/montpelier-and-wells-river-rail-trail",
      "trailspottingUrl": null
    },
    {
      "id": "air-line-state-park-trail",
      "name": "Air Line State Park Trail",
      "state": "CT",
      "distance": "50 miles",
      "description": "Historic \"Ghost Train\" route! Flat gravel trail over viaducts and bridges, through wetlands, farmlands, and forest preserves. Yankee Editors' Pick for \"Best Rail Trail.\"",
      "lat": 41.7004,
      "lng": -72.2273,
      "trailheadLat": 41.5715,
      "trailheadLng": -72.5098,
      "trailheadName": "Portland Trailhead",
      "topPick": true,
      "surface": "Gravel",
      "tags": ["Award Winner", "Viaducts", "Historic"],
      "gpxUrl": null,
      "websiteUrl": "https://portal.ct.gov/DEEP/State-Parks/Parks/Air-Line-State-Park-Trail",
      "trailspottingUrl": null
    },
    {
      "id": "farmington-canal-heritage-trail",
      "name": "Farmington Canal Heritage Trail",
      "state": "CT",
      "distance": "80+ miles total",
      "description": "Popular paved path following a historic canal route. Eventually will connect to Massachusetts trails.",
      "lat": 41.4925,
      "lng": -72.8990,
      "trailheadLat": 41.3082,
      "trailheadLng": -72.9268,
      "trailheadName": "New Haven Trailhead",
      "topPick": false,
      "surface": "Paved",
      "tags": ["Paved", "Canal History"],
      "gpxUrl": null,
      "websiteUrl": "https://www.farmingtoncanal.org/",
      "trailspottingUrl": null
    },
    {
      "id": "east-bay-bike-path",
      "name": "East Bay Bike Path",
      "state": "RI",
      "distance": "14.5 miles",
      "description": "Rhode Island's most popular paved trail with beautiful Narragansett Bay views. Perfect for a day trip from Providence.",
      "lat": 41.7060,
      "lng": -71.3489,
      "trailheadLat": 41.8159,
      "trailheadLng": -71.3897,
      "trailheadName": "India Point Park, Providence",
      "topPick": true,
      "surface": "Paved",
      "tags": ["Paved", "Bay Views", "Most Popular"],
      "gpxUrl": null,
      "websiteUrl": "https://riparks.ri.gov/locations/east-bay-bike-path",
      "trailspottingUrl": null
    },
    {
      "id": "blackstone-river-bikeway",
      "name": "Blackstone River Bikeway",
      "state": "RI",
      "distance": "18+ miles",
      "description": "Follows the historic Blackstone River through industrial heritage sites. Still expanding!",
      "lat": 41.8604,
      "lng": -71.4128,
      "trailheadLat": 41.8604,
      "trailheadLng": -71.4128,
      "trailheadName": "Lonsdale Trailhead",
      "topPick": false,
      "surface": "Paved",
      "tags": ["Historic", "Riverside"],
      "gpxUrl": null,
      "websiteUrl": "https://www.blackstoneheritagecorridor.org/explore/bikeway/",
      "trailspottingUrl": null
    }
  ],
  "metadata": {
    "lastUpdated": "2026-02-01",
    "source": "NE E-Bike and PEV Community",
    "gpxSources": [
      "https://www.trailspotting.com/p/trailspotting-rail-trails.html",
      "https://bikenewengland.com/",
      "https://www.alltrails.com/",
      "State park websites"
    ]
  }
}
